[
  {
    "name": "Araluen Estate",
    "provider": "MiClub",
    "city": "Roleystone",
    "state": "WA",
    "lat": -32.124,
    "lng": 116.099,
    "availability": "07:00, 08:15, 10:30",
    "available": true
  },
  {
    "name": "Wembley Golf Course (Old & Tuart)",
    "provider": "MiClub",
    "city": "Wembley Downs",
    "state": "WA",
    "lat": -31.934,
    "lng": 115.787,
    "availability": "Morning slots",
    "available": true
  },
  {
    "name": "Joondalup Resort Golf Course",
    "provider": "MiClub",
    "city": "Joondalup",
    "state": "WA",
    "lat": -31.746,
    "lng": 115.766,
    "availability": "Fully booked",
    "available": false
  },
  {
    "name": "Collier Park Golf Course",
    "provider": "MiClub",
    "city": "Como",
    "state": "WA",
    "lat": -32.007,
    "lng": 115.871,
    "availability": "09:10, 09:30",
    "available": true
  },
  {
    "name": "Maylands Peninsula Golf Course",
    "provider": "MiClub",
    "city": "Maylands",
    "state": "WA",
    "lat": -31.942,
    "lng": 115.904,
    "availability": "11:00+",
    "available": true
  },
  {
    "name": "The Vines Resort & Country Club",
    "provider": "MiClub",
    "city": "The Vines",
    "state": "WA",
    "lat": -31.777,
    "lng": 116.027,
    "availability": "Check course site",
    "available": true
  },
  {
    "name": "Whaleback Golf Course",
    "provider": "MiClub",
    "city": "Parkwood",
    "state": "WA",
    "lat": -32.043,
    "lng": 115.906,
    "availability": "08:40, 09:00",
    "available": true
  },
  {
    "name": "Secret Harbour Golf Links",
    "provider": "MiClub",
    "city": "Secret Harbour",
    "state": "WA",
    "lat": -32.394,
    "lng": 115.762,
    "availability": "07:20, 07:40",
    "available": true
  },
  {
    "name": "Mandurah Country Club",
    "provider": "MiClub",
    "city": "Halls Head",
    "state": "WA",
    "lat": -32.547,
    "lng": 115.736,
    "availability": "Limited",
    "available": true
  },
  {
    "name": "Sun City Country Club",
    "provider": "MiClub",
    "city": "Yanchep",
    "state": "WA",
    "lat": -31.646,
    "lng": 115.712,
    "availability": "10:00, 11:00",
    "available": true
  },
  {
    "name": "Moore Park Golf",
    "provider": "Lightspeed",
    "city": "Sydney",
    "state": "NSW",
    "lat": -33.896,
    "lng": 151.224,
    "availability": "09:00, 09:20, 10:00",
    "available": true
  },
  {
    "name": "The Coast Golf Club",
    "provider": "Lightspeed",
    "city": "Little Bay",
    "state": "NSW",
    "lat": -33.969,
    "lng": 151.258,
    "availability": "PM only",
    "available": true
  },
  {
    "name": "Long Reef Golf Club",
    "provider": "Lightspeed",
    "city": "Collaroy",
    "state": "NSW",
    "lat": -33.739,
    "lng": 151.305,
    "availability": "08:00, 08:10",
    "available": true
  },
  {
    "name": "St. Michael's Golf Club",
    "provider": "Lightspeed",
    "city": "Little Bay",
    "state": "NSW",
    "lat": -33.974,
    "lng": 151.248,
    "availability": "Enquire",
    "available": true
  },
  {
    "name": "Northbridge Golf Club",
    "provider": "Public",
    "city": "Northbridge",
    "state": "NSW",
    "lat": -33.821,
    "lng": 151.221,
    "availability": "Public walk-up",
    "available": true
  },
  {
    "name": "Mona Vale Golf Club",
    "provider": "MiClub",
    "city": "Mona Vale",
    "state": "NSW",
    "lat": -33.68,
    "lng": 151.308,
    "availability": "AM pairs",
    "available": true
  },
  {
    "name": "Newcastle Golf Club",
    "provider": "MiClub",
    "city": "Fern Bay",
    "state": "NSW",
    "lat": -32.865,
    "lng": 151.792,
    "availability": "Check MiClub",
    "available": true
  },
  {
    "name": "Federal Golf Club Canberra",
    "provider": "MiClub",
    "city": "Red Hill",
    "state": "ACT",
    "lat": -35.335,
    "lng": 149.113,
    "availability": "AM/PM",
    "available": true
  },
  {
    "name": "Albert Park Golf Course",
    "provider": "Lightspeed",
    "city": "Melbourne",
    "state": "VIC",
    "lat": -37.85,
    "lng": 144.97,
    "availability": "12:10, 12:30",
    "available": true
  },
  {
    "name": "Sanctuary Lakes Golf Club",
    "provider": "MiClub",
    "city": "Sanctuary Lakes",
    "state": "VIC",
    "lat": -37.884,
    "lng": 144.748,
    "availability": "Mid-morning",
    "available": true
  },
  {
    "name": "Sandhurst Club",
    "provider": "MiClub",
    "city": "Skye",
    "state": "VIC",
    "lat": -38.069,
    "lng": 145.17,
    "availability": "Members priority",
    "available": false
  },
  {
    "name": "Royal Melbourne Golf Club",
    "provider": "Private",
    "city": "Black Rock",
    "state": "VIC",
    "lat": -37.959,
    "lng": 145.043,
    "availability": "Private",
    "available": false
  },
  {
    "name": "Victoria Golf Club",
    "provider": "Private",
    "city": "Cheltenham",
    "state": "VIC",
    "lat": -37.97,
    "lng": 145.04,
    "availability": "Private",
    "available": false
  },
  {
    "name": "Yarra Bend Golf",
    "provider": "Public",
    "city": "Fairfield",
    "state": "VIC",
    "lat": -37.792,
    "lng": 145.017,
    "availability": "All day",
    "available": true
  },
  {
    "name": "Victoria Park Golf Complex",
    "provider": "Lightspeed",
    "city": "Brisbane",
    "state": "QLD",
    "lat": -27.446,
    "lng": 153.031,
    "availability": "PM only",
    "available": true
  },
  {
    "name": "Brookwater Golf & Country Club",
    "provider": "MiClub",
    "city": "Brookwater",
    "state": "QLD",
    "lat": -27.647,
    "lng": 152.898,
    "availability": "09:00, 10:10",
    "available": true
  },
  {
    "name": "Twin Waters Golf Club",
    "provider": "MiClub",
    "city": "Twin Waters",
    "state": "QLD",
    "lat": -26.626,
    "lng": 153.077,
    "availability": "Midday",
    "available": true
  },
  {
    "name": "Links Hope Island",
    "provider": "Lightspeed",
    "city": "Hope Island",
    "state": "QLD",
    "lat": -27.877,
    "lng": 153.354,
    "availability": "Resort tee times",
    "available": true
  },
  {
    "name": "Palm Meadows Golf Course",
    "provider": "Lightspeed",
    "city": "Carrara",
    "state": "QLD",
    "lat": -28.006,
    "lng": 153.365,
    "availability": "AM slots",
    "available": true
  },
  {
    "name": "Royal Pines Resort Golf Course",
    "provider": "MiClub",
    "city": "Benowa",
    "state": "QLD",
    "lat": -28.0,
    "lng": 153.395,
    "availability": "Check resort",
    "available": true
  },
  {
    "name": "Royal Adelaide Golf Club",
    "provider": "Private",
    "city": "Seaton",
    "state": "SA",
    "lat": -34.892,
    "lng": 138.502,
    "availability": "Private",
    "available": false
  },
  {
    "name": "Glenelg Golf Club",
    "provider": "MiClub",
    "city": "Novar Gardens",
    "state": "SA",
    "lat": -34.964,
    "lng": 138.531,
    "availability": "Limited visitor",
    "available": true
  },
  {
    "name": "Kooyonga Golf Club",
    "provider": "Private",
    "city": "Lockleys",
    "state": "SA",
    "lat": -34.924,
    "lng": 138.525,
    "availability": "Private",
    "available": false
  },
  {
    "name": "The Grange Golf Club",
    "provider": "MiClub",
    "city": "Grange",
    "state": "SA",
    "lat": -34.909,
    "lng": 138.479,
    "availability": "Check MiClub",
    "available": true
  },
  {
    "name": "Barnbougle Dunes",
    "provider": "Resort",
    "city": "Bridport",
    "state": "TAS",
    "lat": -41.041,
    "lng": 147.614,
    "availability": "Resort booking",
    "available": true
  },
  {
    "name": "Barnbougle Lost Farm",
    "provider": "Resort",
    "city": "Bridport",
    "state": "TAS",
    "lat": -41.039,
    "lng": 147.635,
    "availability": "Resort booking",
    "available": true
  },
  {
    "name": "Royal Hobart Golf Club",
    "provider": "Private",
    "city": "Seven Mile Beach",
    "state": "TAS",
    "lat": -42.829,
    "lng": 147.51,
    "availability": "Visitors limited",
    "available": true
  },
  {
    "name": "Darwin Golf Club",
    "provider": "Public",
    "city": "Marrara",
    "state": "NT",
    "lat": -12.395,
    "lng": 130.884,
    "availability": "All day",
    "available": true
  },
  {
    "name": "Palmerston Golf & Country Club",
    "provider": "Public",
    "city": "Palmerston",
    "state": "NT",
    "lat": -12.483,
    "lng": 130.985,
    "availability": "AM/PM",
    "available": true
  }
]